,Unnamed: 0,UNITID,INSTNM,CITY,STABBR,REGION,LATITUDE,LONGITUDE,PREDDEG,COSTT4_A,COSTT4_P,TUITIONFEE_IN,TUITIONFEE_OUT,TUITIONFEE_PROG,C150_4,C150_4_WHITE,C150_4_BLACK,C150_4_HISP,C150_4_ASIAN,C150_4_AIAN,C150_4_NHPI,C150_4_2MOR,C150_4_NRA,C150_4_UNKN,ADM_RATE,SAT_AVG,ACTCMMID,School Name,School Type,Starting Median Salary,Mid-Career Median Salary,Mid-Career 10th Percentile Salary,Mid-Career 25th Percentile Salary,Mid-Career 75th Percentile Salary,Mid-Career 90th Percentile Salary
0,1,100663,UNIVERSITYOFALABAMAATBIRMINGHAM,Birmingham,AL,5,33.50223,-86.80917,3,22232.0,,7766.0,17654.0,,0.5462,0.5536,0.4721,0.5946,0.7722,0.5,1.0,0.7222,0.6875,0.4146,0.6043,1147.0,25.0,University of Alabama at Birmingham (UAB),State,"$39,200.00","$70,100.00","$43,000.00","$53,400.00","$91,400.00","$125,000.00"
1,9,100858,AUBURNUNIVERSITY,Auburn,AL,5,32.604685,-85.482782,3,29164.0,,10424.0,28040.0,,0.7292,0.7464,0.5597,0.6842,0.6905,0.6552,,,0.6471,0.7091,0.7766,1218.0,27.0,Auburn University,State,"$45,400.00","$84,700.00","$45,400.00","$62,700.00","$109,000.00","$145,000.00"
2,60,102553,UNIVERSITYOFALASKAANCHORAGE,Anchorage,AK,8,61.189554,-149.82613500000005,3,14476.0,,5545.0,17177.0,,0.2408,0.2752,0.1951,0.2796,0.2222,0.1128,0.1765,0.2697,0.3333,0.1875,0.706,,,"University of Alaska, Anchorage",State,"$45,900.00","$72,600.00","$39,800.00","$56,600.00","$99,300.00","$137,000.00"
3,81,104179,UNIVERSITYOFARIZONA,Tucson,AZ,6,32.232071000000005,-110.950769,3,23996.0,,11403.0,32630.0,,0.6085,0.6206,0.4681,0.561,0.6854,0.4364,0.2,0.5761,0.7814,0.451,0.7643,,,University of Arizona,State,"$47,500.00","$86,100.00","$44,800.00","$61,700.00","$117,000.00","$160,000.00"
4,134,106397,UNIVERSITYOFARKANSAS,Fayetteville,AR,5,36.06153,-94.178214,3,21288.0,,8522.0,21826.0,,0.6249,0.6384,0.4964,0.5877,0.5946,0.5,0.5,0.4348,0.7708,0.6,0.6006,1154.0,26.0,University of Arkansas,State,"$44,100.00","$82,800.00","$43,200.00","$60,700.00","$113,000.00","$160,000.00"
5,223,110404,CALIFORNIAINSTITUTEOFTECHNOLOGY,Pasadena,CA,8,34.139275,-118.12574,3,60990.0,,45390.0,45390.0,,0.9084,0.8696,0.5,0.8148,0.9889,,1.0,,0.9118,1.0,0.0881,1544.0,35.0,California Institute of Technology (CIT),Engineering,"$75,500.00","$123,000.00",,"$104,000.00","$161,000.00",
6,228,110495,CALIFORNIASTATEUNIVERSITYSTANISLAUS,Turlock,CA,8,37.52577,-120.852511,3,16594.0,,6704.0,17864.0,,0.5489,0.6124,0.5417,0.5205,0.4267,,0.3333,,0.8889,0.5517,0.7063,,,"California State University (CSU), Stanislaus",State,"$38,000.00","$71,400.00","$33,700.00","$50,500.00","$94,100.00","$121,000.00"
7,231,110538,CALIFORNIASTATEUNIVERSITYCHICO,Chico,CA,8,39.728003,-121.846333,3,21756.0,,7022.0,18182.0,,0.637,0.6694,0.3958,0.5857,0.5877,0.5455,0.3333,,0.7358,0.6022,0.6345,1003.0,22.0,"California State University (CSU), Chico",State,"$47,400.00","$88,100.00","$46,800.00","$62,800.00","$122,000.00","$154,000.00"
8,232,110547,CALIFORNIASTATEUNIVERSITYDOMINGUEZHILLS,Carson,CA,8,33.86524,-118.259316,3,13349.0,,6213.0,17373.0,,0.3471,0.4412,0.2868,0.3712,0.4848,0.0,0.375,,0.2813,0.2899,0.5277,,,"California State University, Dominguez Hills (CSUDH)",State,"$42,700.00","$72,100.00","$30,800.00","$47,000.00","$92,200.00","$132,000.00"
9,234,110565,CALIFORNIASTATEUNIVERSITYFULLERTON,Fullerton,CA,8,33.883627000000004,-117.885349,3,16337.0,,6437.0,17597.0,,0.6192,0.6644,0.4587,0.5754,0.6729999999999999,0.5,0.6923,,0.6456,0.5770000000000001,0.4186,1024.0,22.0,"California State University, Fullerton (CSUF)",State,"$45,700.00","$87,000.00","$45,400.00","$62,500.00","$119,000.00","$158,000.00"
10,235,110574,CALIFORNIASTATEUNIVERSITYEASTBAY,Hayward,CA,8,37.65707,-122.058073,3,19842.0,,6564.0,17724.0,,0.4513,0.4599,0.2823,0.4192,0.5479,0.0,0.4783,,0.5882,0.4636,0.7403,,,"California State University, East Bay (CSUEB)",State,"$49,200.00","$84,300.00","$46,000.00","$62,400.00","$115,000.00","$155,000.00"
11,236,110583,CALIFORNIASTATEUNIVERSITYLONGBEACH,Long Beach,CA,8,33.782752,-118.1123,3,17718.0,,6452.0,17612.0,,0.6703,0.7343,0.6358,0.6431,0.6962,1.0,0.25,,0.5385,0.6207,0.3382,1056.0,23.0,"California State University, Long Beach (CSULB)",State,"$45,100.00","$84,700.00","$47,400.00","$62,500.00","$113,000.00","$154,000.00"
12,238,110608,CALIFORNIASTATEUNIVERSITYNORTHRIDGE,Northridge,CA,8,34.236709999999995,-118.526817,3,16793.0,,6569.0,17729.0,,0.5043,0.6035,0.4133,0.4687,0.534,0.125,0.1111,,0.5649,0.5394,0.456,902.0,19.0,"California State University, Northridge (CSUN)",State,"$45,500.00","$80,400.00","$44,500.00","$57,800.00","$108,000.00","$153,000.00"
13,239,110617,CALIFORNIASTATEUNIVERSITYSACRAMENTO,Sacramento,CA,8,38.55745,-121.42194,3,17927.0,,6872.0,18032.0,,0.4597,0.5121,0.3254,0.4385,0.472,0.0833,0.4167,,0.6316,0.4517,0.6725,948.0,20.0,"California State University, Sacramento (CSUS)",State,"$47,800.00","$82,400.00","$42,900.00","$59,600.00","$111,000.00","$154,000.00"
14,240,110635,UNIVERSITYOFCALIFORNIABERKELEY,Berkeley,CA,8,37.871969,-122.260423,3,33993.0,,13431.0,38139.0,,0.9158,0.9143,0.7638,0.848,0.948,0.7895,0.8,,0.8866,0.9377,0.1688,1397.0,32.0,"University of California, Berkeley",State,"$59,900.00","$112,000.00","$59,500.00","$81,000.00","$149,000.00","$201,000.00"
15,241,110644,UNIVERSITYOFCALIFORNIADAVIS,Davis,CA,8,38.539895,-121.751958,3,33271.0,,13951.0,38659.0,,0.8538,0.8684,0.7209,0.7691,0.882,0.8857,,,0.8088,0.8895,0.3795,1226.0,28.0,"University of California, Davis",State,"$52,300.00","$99,600.00","$52,000.00","$71,600.00","$135,000.00","$202,000.00"
16,242,110653,UNIVERSITYOFCALIFORNIAIRVINE,Irvine,CA,8,33.648434,-117.841248,3,30796.0,,13252.0,37960.0,,0.8809,0.8461,0.8023,0.8371,0.9073,0.9333,0.6667,,0.7949,0.9119,0.3868,1175.0,27.0,"University of California, Irvine (UCI)",State,"$48,300.00","$96,700.00","$47,800.00","$66,000.00","$123,000.00","$172,000.00"
17,244,110671,UNIVERSITYOFCALIFORNIARIVERSIDE,Riverside,CA,8,33.97588,-117.331098,3,30943.0,,13527.0,38235.0,,0.7309,0.7118,0.7335,0.6952,0.7744,0.6923,,,0.5435,0.6667,0.556,1119.0,26.0,"University of California, Riverside (UCR)",State,"$46,800.00","$81,300.00","$37,200.00","$59,900.00","$109,000.00","$134,000.00"
18,245,110680,UNIVERSITYOFCALIFORNIASANDIEGO,La Jolla,CA,8,32.876598,-117.237793,3,30837.0,,13530.0,38238.0,,0.8728,0.884,0.7826,0.7786,0.9049,0.8182,0.8182,,0.7815,0.8706,0.3374,1344.0,31.0,"University of California, San Diego (UCSD)",State,"$51,100.00","$101,000.00","$51,700.00","$75,400.00","$131,000.00","$177,000.00"
19,247,110705,UNIVERSITYOFCALIFORNIASANTABARBARA,Santa Barbara,CA,8,34.416281,-119.846404,3,34496.0,,13968.0,38676.0,,0.8098,0.8318,0.7241,0.7778,0.8271,0.7917,1.0,,0.8039,0.7474,0.3264,1248.0,29.0,"University of California, Santa Barbara (UCSB)",Party,"$50,500.00","$95,000.00","$51,300.00","$71,200.00","$129,000.00","$173,000.00"
20,247,110705,UNIVERSITYOFCALIFORNIASANTABARBARA,Santa Barbara,CA,8,34.416281,-119.846404,3,34496.0,,13968.0,38676.0,,0.8098,0.8318,0.7241,0.7778,0.8271,0.7917,1.0,,0.8039,0.7474,0.3264,1248.0,29.0,"University of California, Santa Barbara (UCSB)",State,"$50,500.00","$95,000.00","$51,300.00","$71,200.00","$129,000.00","$173,000.00"
21,248,110714,UNIVERSITYOFCALIFORNIASANTACRUZ,Santa Cruz,CA,8,36.997258,-122.067993,3,34124.0,,13461.0,38169.0,,0.7835,0.7794,0.6386,0.75,0.8186,0.7949,0.6667,,0.6923,0.8439,0.5029,1201.0,28.0,"University of California, Santa Cruz (UCSC)",State,"$44,700.00","$84,100.00","$46,100.00","$62,000.00","$121,000.00","$165,000.00"
22,336,115409,HARVEYMUDDCOLLEGE,Claremont,CA,8,34.106137,-117.710594,3,66627.0,,50649.0,50649.0,,0.9179,0.9385,1.0,0.7059,0.9167,1.0,,0.8,1.0,1.0,0.1296,1484.0,34.0,Harvey Mudd College,Engineering,"$71,800.00","$122,000.00",,"$96,000.00","$180,000.00",
23,340,115755,HUMBOLDTSTATEUNIVERSITY,Arcata,CA,8,40.8741,-124.0814,3,22593.0,,7195.0,18364.0,,0.4558,0.5169,0.4091,0.3529,0.3409,0.3333,0.4,,0.8,0.4175,0.77,990.0,21.0,Humboldt State University,State,"$42,600.00","$71,300.00","$36,000.00","$56,300.00","$94,400.00","$117,000.00"
24,420,120254,OCCIDENTALCOLLEGE,Los Angeles,CA,8,34.126224,-118.210783,3,64804.0,,49248.0,49248.0,,0.875,0.8659,0.9444,0.9351,0.8421,1.0,1.0,0.9167,0.6667,0.8571,0.4487,1304.0,30.0,Occidental College,Liberal Arts,"$51,900.00","$105,000.00",,"$54,800.00","$157,000.00",
25,443,121345,POMONACOLLEGE,Claremont,CA,8,34.098298,-117.711944,3,62632.0,,47620.0,47620.0,,0.9434,0.9639,0.8966,0.9375,1.0,,,0.9545,0.9167,0.8933,0.103,1435.0,32.0,Pomona College,Liberal Arts,"$48,600.00","$101,000.00",,"$63,300.00","$161,000.00",
26,466,122409,SANDIEGOSTATEUNIVERSITY,San Diego,CA,8,32.77525,-117.071228,3,20977.0,,6976.0,18136.0,,0.6806,0.7286,0.52,0.6367,0.6842,0.25,0.4,,0.5660000000000001,0.6842,0.3441,1130.0,25.0,San Diego State University (SDSU),State,"$46,200.00","$85,200.00","$45,500.00","$61,800.00","$116,000.00","$158,000.00"
27,470,122597,SANFRANCISCOSTATEUNIVERSITY,San Francisco,CA,8,37.721345,-122.477905,3,21559.0,,6476.0,17636.0,,0.5123,0.5389,0.392,0.4556,0.5791,0.3333,0.35,,0.5035,0.4828,0.6788,979.0,21.0,San Francisco State University (SFSU),State,"$47,300.00","$86,400.00","$45,100.00","$62,700.00","$114,000.00","$150,000.00"
28,478,122755,SANJOSESTATEUNIVERSITY,San Jose,CA,8,37.335201,-121.881214,3,22046.0,,7378.0,18538.0,,0.5677,0.6021,0.4143,0.4437,0.6344,1.0,0.3333,,0.7368,0.5761,0.5522,1055.0,23.0,San Jose State University (SJSU),State,"$53,500.00","$95,600.00","$50,700.00","$70,500.00","$122,000.00","$156,000.00"
29,515,124292,THOMASAQUINASCOLLEGE,Santa Paula,CA,8,34.429009,-119.087141,3,35706.0,,24500.0,24500.0,,0.8851,0.8462,,1.0,,,,1.0,1.0,1.0,0.7513,1280.0,30.0,Thomas Aquinas College,Liberal Arts,"$41,500.00","$67,500.00",,"$44,600.00","$93,100.00",
30,549,126614,UNIVERSITYOFCOLORADOBOULDER,Boulder,CO,7,40.004415,-105.267061,3,30025.0,,11091.0,34125.0,,0.715,0.7263,0.5957,0.6521,0.7086,0.5455,,0.8261,0.623,0.722,0.7962,1212.0,27.0,University of Colorado - Boulder (UCB),State,"$47,100.00","$97,600.00","$51,600.00","$69,000.00","$128,000.00","$187,000.00"
31,551,126678,COLORADOCOLLEGE,Colorado Springs,CO,7,38.84657,-104.82422,3,60500.0,,48996.0,48996.0,,0.8745,0.8722,1.0,0.871,0.75,1.0,,1.0,1.0,0.7222,0.1713,,,Colorado College (CC),Liberal Arts,"$38,500.00","$81,400.00",,"$43,000.00","$148,000.00",
32,556,126775,COLORADOSCHOOLOFMINES,Golden,CO,7,39.75079,-105.227148,3,30990.0,,17353.0,34828.0,,0.7654,0.7715,0.3636,0.7273,0.8333,0.8,,,0.7561,0.7624,0.3767,1339.0,30.0,Colorado School of Mines,Engineering,"$58,100.00","$106,000.00","$62,200.00","$87,900.00","$142,000.00","$201,000.00"
33,569,127185,FORTLEWISCOLLEGE,Durango,CO,7,37.27542800000001,-107.867003,3,22780.0,,7600.0,17816.0,,0.4047,0.4408,0.1667,0.2917,0.0,0.3358,,,0.4,0.4545,0.8596,1012.0,22.0,Fort Lewis College,Liberal Arts,"$42,000.00","$69,800.00",,"$55,000.00","$94,000.00",
34,613,129020,UNIVERSITYOFCONNECTICUT,Storrs,CT,1,41.806261,-72.247969,3,28016.0,,13366.0,34908.0,,0.8309,0.8461,0.7035,0.768,0.8340000000000001,0.5,,,0.8,0.8449,0.5317,1250.0,29.0,University of Connecticut (UConn),State,"$48,000.00","$88,800.00","$46,100.00","$66,400.00","$120,000.00","$162,000.00"
35,651,130697,WESLEYANUNIVERSITY,Middletown,CT,1,41.55678,-72.656755,3,64163.0,,49274.0,49274.0,,0.9435,0.9447,0.8913,0.8732,0.9688,1.0,,0.9808,0.913,1.0,0.222,,,"Wesleyan University (Middletown, Connecticut)",Liberal Arts,"$46,500.00","$97,900.00","$42,000.00","$62,500.00","$126,000.00","$215,000.00"
36,653,130794,YALEUNIVERSITY,New Haven,CT,1,41.311158,-72.926688,3,63970.0,,47600.0,47600.0,,0.9678,0.985,0.9259,0.9593,0.9659,0.8889,1.0,0.9375,0.9487,0.9048,0.0673,1498.0,33.0,Yale University,Ivy League,"$59,100.00","$126,000.00","$58,000.00","$80,600.00","$198,000.00","$326,000.00"
37,658,130943,UNIVERSITYOFDELAWARE,Newark,DE,2,39.679574,-75.75291700000002,3,24086.0,,12520.0,31420.0,,0.7884,0.8025,0.7033,0.7448,0.7574,0.75,0.7857,,0.7217,0.7791,0.6659,1198.0,27.0,University of Delaware,State,"$45,900.00","$84,500.00","$44,500.00","$64,000.00","$119,000.00","$165,000.00"
38,691,132903,UNIVERSITYOFCENTRALFLORIDA,Orlando,FL,5,28.60106,-81.19880500000002,3,19911.0,,6368.0,22467.0,,0.7039,0.7125,0.6369,0.7120000000000001,0.696,0.5,0.6667,0.7903,0.5152,0.6207,0.4857,1179.0,26.0,University of Central Florida (UCF),State,"$42,600.00","$71,700.00","$39,500.00","$51,500.00","$98,400.00","$125,000.00"
39,702,133669,FLORIDAATLANTICUNIVERSITY,Boca Raton,FL,5,26.372536,-80.102293,3,18805.0,,4831.0,17276.0,,0.4933,0.4831,0.5042,0.5169,0.4775,0.2857,,0.4615,0.7368,0.3684,0.6768,1047.0,23.0,Florida Atlantic University (FAU),State,"$42,600.00","$71,100.00","$40,700.00","$53,000.00","$99,500.00","$137,000.00"
40,712,133951,FLORIDAINTERNATIONALUNIVERSITY,Miami,FL,5,25.757111,-80.37759100000002,3,18727.0,,6556.0,18954.0,,0.5784,0.5112,0.4404,0.6079,0.5652,1.0,0.6667,0.6667,0.6029,0.6471,0.504,1090.0,24.0,Florida International University (FIU),State,"$43,200.00","$75,500.00","$40,500.00","$55,800.00","$98,200.00","$136,000.00"
41,718,134097,FLORIDASTATEUNIVERSITY,Tallahassee,FL,5,30.4421,-84.294801,3,21463.0,,6507.0,21673.0,,0.7939,0.7997,0.7795,0.7784,0.7892,0.7778,1.0,0.7667,0.8696,0.7778,0.5589999999999999,1215.0,27.0,Florida State University (FSU),Party,"$42,100.00","$73,000.00","$39,600.00","$52,800.00","$107,000.00","$156,000.00"
42,718,134097,FLORIDASTATEUNIVERSITY,Tallahassee,FL,5,30.4421,-84.294801,3,21463.0,,6507.0,21673.0,,0.7939,0.7997,0.7795,0.7784,0.7892,0.7778,1.0,0.7667,0.8696,0.7778,0.5589999999999999,1215.0,27.0,Florida State University (FSU),State,"$42,100.00","$73,000.00","$39,600.00","$52,800.00","$107,000.00","$156,000.00"
43,720,134130,UNIVERSITYOFFLORIDA,Gainesville,FL,5,29.649428000000004,-82.339958,3,20467.0,,6381.0,28659.0,,0.865,0.8758,0.8041,0.8617,0.8617,0.5333,0.9545,0.8698,0.7778,0.901,0.4754,1277.0,29.0,University of Florida (UF),Party,"$47,100.00","$87,900.00","$45,400.00","$62,900.00","$120,000.00","$172,000.00"
44,720,134130,UNIVERSITYOFFLORIDA,Gainesville,FL,5,29.649428000000004,-82.339958,3,20467.0,,6381.0,28659.0,,0.865,0.8758,0.8041,0.8617,0.8617,0.5333,0.9545,0.8698,0.7778,0.901,0.4754,1277.0,29.0,University of Florida (UF),State,"$47,100.00","$87,900.00","$45,400.00","$62,900.00","$120,000.00","$172,000.00"
45,869,139940,GEORGIASTATEUNIVERSITY,Atlanta,GA,5,33.7527,-84.38667,3,23631.0,,8974.0,23542.0,,0.539,0.4959,0.5805,0.5818,0.5704,0.5,0.7143,0.4953,0.4146,0.4651,0.5665,1056.0,23.0,Georgia State University,State,"$41,800.00","$74,000.00","$43,000.00","$55,300.00","$99,900.00","$145,000.00"
46,870,139959,UNIVERSITYOFGEORGIA,Athens,GA,5,33.956428,-83.374049,3,22536.0,,11622.0,29832.0,,0.8526,0.856,0.8686,0.8075,0.8418,0.8889,1.0,0.8108,0.7556,0.8391,0.5288,1252.0,28.0,University of Georgia (UGA),Party,"$44,100.00","$86,000.00","$43,100.00","$57,800.00","$118,000.00","$164,000.00"
47,870,139959,UNIVERSITYOFGEORGIA,Athens,GA,5,33.956428,-83.374049,3,22536.0,,11622.0,29832.0,,0.8526,0.856,0.8686,0.8075,0.8418,0.8889,1.0,0.8108,0.7556,0.8391,0.5288,1252.0,28.0,University of Georgia (UGA),State,"$44,100.00","$86,000.00","$43,100.00","$57,800.00","$118,000.00","$164,000.00"
48,923,142115,BOISESTATEUNIVERSITY,Boise,ID,7,43.60440300000001,-116.205789,3,17670.0,,6876.0,20926.0,,0.3869,0.397,0.2881,0.3333,0.5,0.4286,0.2857,0.3889,0.6364,0.2727,0.7957,1046.0,23.0,Boise State University (BSU),State,"$40,800.00","$69,500.00","$37,400.00","$48,700.00","$87,500.00","$110,000.00"
49,925,142276,IDAHOSTATEUNIVERSITY,Pocatello,ID,7,42.864108,-112.429084,3,19191.0,,6784.0,20182.0,,0.3221,0.3176,0.4,0.4133,0.2727,0.1852,,,0.5,0.3125,,,,Idaho State University,State,"$44,900.00","$73,400.00","$35,400.00","$49,600.00","$101,000.00","$143,000.00"
50,926,142285,UNIVERSITYOFIDAHO,Moscow,ID,7,46.726894,-117.024296,3,19418.0,,7020.0,21024.0,,0.5735,0.5921,0.2632,0.45,0.6,0.3636,0.3846,0.5556,0.5,0.5372,0.7205,1061.0,23.0,University of Idaho,State,"$44,900.00","$82,000.00","$43,000.00","$56,700.00","$104,000.00","$142,000.00"
51,1001,145600,UNIVERSITYOFILLINOISATCHICAGO,Chicago,IL,3,41.872651,-87.651145,3,25046.0,,13664.0,26520.0,,0.5976,0.6319,0.4153,0.5449,0.6689,0.0,,,0.4324,0.6364,0.7665,1092.0,24.0,University of Illinois at Chicago,State,"$47,500.00","$81,700.00","$44,700.00","$58,800.00","$110,000.00","$146,000.00"
52,1004,145637,UNIVERSITYOFILLINOISATURBANACHAMPAIGN,Champaign,IL,3,40.108864,-88.23030899999998,3,29568.0,,15054.0,30214.0,,0.8517,0.8724,0.7288,0.8174,0.8743,0.8182,1.0,0.8851,0.7783,0.9412,0.6556,1305.0,29.0,University of Illinois at Urbana-Champaign (UIUC),Party,"$52,900.00","$96,100.00","$48,200.00","$68,900.00","$132,000.00","$177,000.00"
53,1004,145637,UNIVERSITYOFILLINOISATURBANACHAMPAIGN,Champaign,IL,3,40.108864,-88.23030899999998,3,29568.0,,15054.0,30214.0,,0.8517,0.8724,0.7288,0.8174,0.8743,0.8182,1.0,0.8851,0.7783,0.9412,0.6556,1305.0,29.0,University of Illinois at Urbana-Champaign (UIUC),State,"$52,900.00","$96,100.00","$48,200.00","$68,900.00","$132,000.00","$177,000.00"
54,1009,145725,ILLINOISINSTITUTEOFTECHNOLOGY,Chicago,IL,3,41.833801,-87.628346,3,53585.0,,43680.0,43680.0,,0.7259,0.7725,0.3684,0.6136,0.7966,1.0,1.0,1.0,0.6207,0.7188,0.5271,1251.0,28.0,Illinois Institute of Technology (IIT),Engineering,"$56,000.00","$97,800.00","$56,100.00","$77,400.00","$121,000.00","$165,000.00"
55,1011,145813,ILLINOISSTATEUNIVERSITY,Normal,IL,3,40.509724,-88.99234,3,27018.0,,13666.0,21482.0,,0.7314,0.7551,0.5726,0.6635,0.6486,0.7273,,,0.7273,0.7358,0.8772,1090.0,24.0,Illinois State University,State,"$42,000.00","$73,400.00","$39,100.00","$55,200.00","$105,000.00","$142,000.00"
56,1061,147703,NORTHERNILLINOISUNIVERSITY,Dekalb,IL,3,41.933791,-88.766065,3,27837.0,,14295.0,23761.0,,0.5027,0.5979,0.3163,0.412,0.5649,0.3,,,0.4667,0.4706,0.5035,1029.0,22.0,Northern Illinois University (NIU),State,"$43,600.00","$80,800.00","$43,900.00","$60,200.00","$111,000.00","$161,000.00"
57,1099,149222,SOUTHERNILLINOISUNIVERSITYCARBONDALE,Carbondale,IL,3,37.713239,-89.218724,3,25692.0,,13137.0,26390.0,,0.4507,0.5473,0.2905,0.2692,0.4146,0.2941,0.0,0.4255,0.6667,0.3103,0.8064,1032.0,22.0,Southern Illinois University Carbondale,State,"$43,000.00","$72,500.00","$38,300.00","$51,300.00","$99,300.00","$139,000.00"
58,1118,150136,BALLSTATEUNIVERSITY,Muncie,IN,3,40.198942,-85.408863,3,22294.0,,9498.0,25016.0,,0.5962,0.6234,0.4815,0.4911,0.4828,0.4286,0.5,0.55,0.2727,0.3459,0.605,1070.0,22.0,Ball State University (BSU),State,"$39,100.00","$64,500.00","$35,500.00","$48,200.00","$89,300.00","$128,000.00"
59,1126,150400,DEPAUWUNIVERSITY,Greencastle,IN,3,39.63953,-86.863556,3,56146.0,,44678.0,44678.0,,0.8173,0.8136,0.7593,0.9143,0.8235,,,0.619,0.9091,0.7778,0.6476,1208.0,27.0,DePauw University,Liberal Arts,"$41,400.00","$88,300.00","$49,500.00","$57,400.00","$133,000.00","$185,000.00"
60,1151,151351,INDIANAUNIVERSITYBLOOMINGTON,Bloomington,IN,3,39.166383,-86.526904,3,24326.0,,10388.0,33741.0,,0.7706,0.784,0.6638,0.7108,0.7492,0.4615,0.6667,0.7719,0.7494,0.6053,0.7799,1199.0,27.0,"Indiana University (IU), Bloomington",Party,"$46,300.00","$84,000.00","$43,600.00","$60,400.00","$119,000.00","$178,000.00"
61,1151,151351,INDIANAUNIVERSITYBLOOMINGTON,Bloomington,IN,3,39.166383,-86.526904,3,24326.0,,10388.0,33741.0,,0.7706,0.784,0.6638,0.7108,0.7492,0.4615,0.6667,0.7719,0.7494,0.6053,0.7799,1199.0,27.0,"Indiana University (IU), Bloomington",State,"$46,300.00","$84,000.00","$43,600.00","$60,400.00","$119,000.00","$178,000.00"
62,1220,153384,GRINNELLCOLLEGE,Grinnell,IA,4,41.747048,-92.721246,3,59317.0,,46990.0,46990.0,,0.8568,0.8861,0.75,0.7333,0.7917,1.0,,0.75,0.9167,0.8667,0.2491,1402.0,32.0,Grinnell College,Liberal Arts,"$42,600.00","$76,600.00",,"$65,100.00","$116,000.00",
63,1232,153603,IOWASTATEUNIVERSITY,Ames,IA,4,42.026368,-93.648353,3,18943.0,,7736.0,20856.0,,0.7137,0.7341,0.4815,0.6364,0.6172,0.375,0.3333,0.5758,0.6908,0.6795,0.8715,1142.0,25.0,Iowa State University,State,"$45,400.00","$84,600.00","$44,400.00","$60,000.00","$109,000.00","$147,000.00"
64,1235,153658,UNIVERSITYOFIOWA,Iowa City,IA,4,41.660695,-91.535698,3,20861.0,,8104.0,27890.0,,0.7208,0.7286,0.6136,0.6649,0.6694,0.7143,0.5714,0.625,0.7345,0.7609,0.8074,1164.0,26.0,University of Iowa (UI),Party,"$44,700.00","$83,900.00","$43,300.00","$61,100.00","$116,000.00","$163,000.00"
65,1235,153658,UNIVERSITYOFIOWA,Iowa City,IA,4,41.660695,-91.535698,3,20861.0,,8104.0,27890.0,,0.7208,0.7286,0.6136,0.6649,0.6694,0.7143,0.5714,0.625,0.7345,0.7609,0.8074,1164.0,26.0,University of Iowa (UI),State,"$44,700.00","$83,900.00","$43,300.00","$61,100.00","$116,000.00","$163,000.00"
66,1310,155317,UNIVERSITYOFKANSAS,Lawrence,KS,4,38.958551,-95.247618,3,23733.0,,10825.0,26659.0,,0.6133,0.6263,0.4743,0.5422,0.6095,0.6,,,0.6209,0.5667,0.9347,1145.0,25.0,University of Kansas,State,"$42,400.00","$81,600.00","$44,800.00","$57,200.00","$115,000.00","$156,000.00"
67,1313,155399,KANSASSTATEUNIVERSITY,Manhattan,KS,4,39.188616,-96.581077,3,22002.0,,9350.0,23429.0,,0.617,0.6601,0.3526,0.4419,0.5278,0.4348,0.4,0.4545,0.4941,0.5094,0.9492,,,Kansas State University (KSU),State,"$43,300.00","$79,000.00","$37,200.00","$54,100.00","$106,000.00","$138,000.00"
68,1327,155681,PITTSBURGSTATEUNIVERSITY,Pittsburg,KS,4,37.3913,-94.704782,3,16485.0,,6508.0,16978.0,,0.4778,0.4877,0.3864,0.6,0.3,0.5909,,,0.6,0.3433,0.8135,,,Pittsburg State University,State,"$40,400.00","$58,200.00","$25,600.00","$46,000.00","$84,600.00","$117,000.00"
69,1373,157085,UNIVERSITYOFKENTUCKY,Lexington,KY,5,38.035818,-84.50565300000002,3,24738.0,,10936.0,24268.0,,0.6275,0.6514,0.3918,0.5882,0.8065,0.2222,,0.5484,0.5682,0.7011,0.8911,1143.0,25.0,University of Kentucky (UK),State,"$42,800.00","$78,300.00","$43,000.00","$57,300.00","$107,000.00","$149,000.00"
70,1383,157386,MOREHEADSTATEUNIVERSITY,Morehead,KY,5,38.188462,-83.429742,3,18898.0,,8098.0,20246.0,,0.3992,0.4112,0.1875,0.4286,0.6667,0.0,,0.0,0.5,0.3103,0.8539,1047.0,23.0,Morehead State University,State,"$34,800.00","$60,600.00","$34,300.00","$46,500.00","$72,000.00","$91,300.00"
71,1408,157863,UNIONCOLLEGE,Barbourville,KY,5,36.869066,-83.887982,3,34038.0,,24000.0,24000.0,,0.3211,0.3521,0.1714,,1.0,,,0.2857,0.4,,0.6918,970.0,21.0,Union College,Liberal Arts,"$47,200.00","$95,800.00","$48,700.00","$75,200.00","$135,000.00","$230,000.00"
72,2106,181738,UNIONCOLLEGE,Lincoln,NE,4,40.77477800000001,-96.651095,3,32465.0,,21970.0,21970.0,,0.5702,0.593,0.0,0.5,0.75,,0.0,0.8571,0.0,0.0,0.5614,1050.0,23.0,Union College,Liberal Arts,"$47,200.00","$95,800.00","$48,700.00","$75,200.00","$135,000.00","$230,000.00"
73,2554,196866,UNIONCOLLEGE,Schenectady,NY,2,42.81757800000001,-73.928498,3,62038.0,,50013.0,50013.0,,0.8808,0.8734,0.9688,0.9231,0.8605,1.0,,0.8333,0.9048,0.0,0.3831,,,Union College,Liberal Arts,"$47,200.00","$95,800.00","$48,700.00","$75,200.00","$135,000.00","$230,000.00"
74,1471,160658,UNIVERSITYOFLOUISIANAATLAFAYETTE,Lafayette,LA,5,30.215283000000003,-92.01941,3,17007.0,,8256.0,21984.0,,0.4548,0.4846,0.3625,0.4429,0.3953,0.4706,,0.25,0.75,0.3529,0.5527,1069.0,23.0,University of Louisiana (UL) at Lafayette,State,"$41,100.00","$76,300.00","$42,000.00","$54,500.00","$107,000.00","$163,000.00"
75,1478,160977,BATESCOLLEGE,Lewiston,ME,1,44.105299,-70.203333,3,62770.0,,48435.0,48435.0,,0.8763,0.8961,0.88,0.68,0.8148,1.0,,0.8182,0.8696,,0.2178,,,Bates College,Liberal Arts,"$47,300.00","$96,500.00",,"$60,700.00","$162,000.00",
76,1480,161004,BOWDOINCOLLEGE,Brunswick,ME,1,43.906902,-69.965241,3,61650.0,,48212.0,48212.0,,0.927,0.9625,0.7826,0.8529,0.9412,,1.0,0.8929,0.7895,,0.1487,,,Bowdoin College,Liberal Arts,"$48,100.00","$107,000.00",,"$74,600.00","$146,000.00",
77,1483,161086,COLBYCOLLEGE,Waterville,ME,1,44.564211,-69.66337,3,61100.0,,49120.0,49120.0,,0.9374,0.948,0.8667,0.9412,0.8667,1.0,1.0,1.0,0.8529,0.963,0.2252,1363.0,31.0,Colby College,Liberal Arts,"$46,400.00","$85,800.00",,"$63,500.00","$129,000.00",
78,1491,161253,UNIVERSITYOFMAINE,Orono,ME,1,44.895129,-68.67358,3,22444.0,,10610.0,28880.0,,0.5532,0.5597,0.1786,0.45,0.55,0.4615,,0.4211,0.7097,0.5856,0.9121,1090.0,25.0,University Of Maine,State,"$41,200.00","$72,100.00","$41,700.00","$55,600.00","$99,300.00","$141,000.00"
79,1501,161554,UNIVERSITYOFSOUTHERNMAINE,Portland,ME,1,43.662637,-70.276002,3,21880.0,,7796.0,18508.0,,0.3333,0.3474,0.2222,0.0667,0.2381,0.1111,,0.0,,0.3544,0.8777,984.0,22.0,University of Southern Maine,State,"$39,400.00","$63,600.00","$40,400.00","$47,900.00","$85,700.00","$117,000.00"
80,1540,163268,UNIVERSITYOFMARYLANDBALTIMORECOUNTY,Baltimore,MD,2,39.256686,-76.711607,3,22873.0,,11006.0,23770.0,,0.6327,0.6299,0.6844,0.5714,0.6497,0.0,,,0.5,0.5789,0.5942,1209.0,27.0,University of Maryland Baltimore County (UMBC),State,"$47,000.00","$77,800.00","$46,900.00","$59,100.00","$105,000.00","$130,000.00"
81,1541,163286,UNIVERSITYOFMARYLANDCOLLEGEPARK,College Park,MD,2,38.985379,-76.939494,3,23889.0,,9996.0,31144.0,,0.8635,0.8768,0.8093,0.8036,0.9009,0.4286,0.5,0.7979,0.7143,0.8438,0.4488,1315.0,,"University of Maryland, College Park",Party,"$52,000.00","$95,000.00","$50,400.00","$68,300.00","$126,000.00","$166,000.00"
82,1541,163286,UNIVERSITYOFMARYLANDCOLLEGEPARK,College Park,MD,2,38.985379,-76.939494,3,23889.0,,9996.0,31144.0,,0.8635,0.8768,0.8093,0.8036,0.9009,0.4286,0.5,0.7979,0.7143,0.8438,0.4488,1315.0,,"University of Maryland, College Park",State,"$52,000.00","$95,000.00","$50,400.00","$68,300.00","$126,000.00","$166,000.00"
83,1569,164465,AMHERSTCOLLEGE,Amherst,MA,1,42.372459,-72.518493,3,64006.0,,50562.0,50562.0,,0.9505,0.9762,0.9074,0.8444,1.0,,,0.9512,0.9783,0.9375,0.1412,1451.0,33.0,Amherst College,Liberal Arts,"$54,500.00","$107,000.00",,"$84,900.00","$162,000.00",
84,1621,166027,HARVARDUNIVERSITY,Cambridge,MA,1,42.374429,-71.118177,3,62250.0,,45278.0,45278.0,,0.9759,0.9798,0.9609,0.9815,0.9897,0.8,,0.9565,0.9455,0.9901,0.0558,1497.0,34.0,Harvard University,Ivy League,"$63,400.00","$124,000.00","$54,800.00","$86,200.00","$179,000.00","$288,000.00"
85,1624,166124,COLLEGEOFTHEHOLYCROSS,Worcester,MA,1,42.238942,-71.808627,3,59571.0,,47176.0,47176.0,,0.9169,0.9258,0.9143,0.875,0.8889,1.0,1.0,,0.8889,0.9048,0.3703,,,College of the Holy Cross,Liberal Arts,"$50,200.00","$106,000.00",,"$65,600.00","$143,000.00",
86,1634,166513,UNIVERSITYOFMASSACHUSETTSLOWELL,Lowell,MA,1,42.65372,-71.32508100000003,3,24804.0,,13427.0,29125.0,,0.5564,0.5744,0.5435,0.4043,0.6596,0.0,,0.625,0.3333,0.1111,0.5679,1197.0,26.0,University of Massachusetts (UMass) - Lowell,State,"$45,400.00","$86,600.00","$50,900.00","$65,000.00","$113,000.00","$158,000.00"
87,1637,166629,UNIVERSITYOFMASSACHUSETTSAMHERST,Amherst,MA,1,42.386162,-72.52617,3,26726.0,,14171.0,30504.0,,0.7793,0.7789,0.6981,0.7399,0.7869,0.6667,,,0.6667,0.8153,0.5832,1226.0,28.0,University of Massachusetts (UMass) - Amherst,State,"$46,600.00","$88,200.00","$43,100.00","$61,300.00","$122,000.00","$168,000.00"
88,1638,166638,UNIVERSITYOFMASSACHUSETTSBOSTON,Boston,MA,1,42.314541,-71.038653,3,20496.0,,12682.0,29920.0,,0.424,0.3846,0.4677,0.379,0.5245,0.3333,,,0.4643,0.4458,0.6905,1055.0,,University of Massachusetts (UMass) - Boston,State,"$45,600.00","$78,200.00","$36,300.00","$53,800.00","$109,000.00","$151,000.00"
89,1642,166683,MASSACHUSETTSINSTITUTEOFTECHNOLOGY,Cambridge,MA,1,42.360095,-71.092115,3,61030.0,,46704.0,46704.0,,0.9193,0.9333,0.8721,0.8089,0.9667,0.625,0.0,0.9167,0.9643,0.9655,0.083,1507.0,34.0,Massachusetts Institute of Technology (MIT),Engineering,"$72,200.00","$126,000.00","$76,800.00","$99,200.00","$168,000.00","$220,000.00"
90,1652,166939,MOUNTHOLYOKECOLLEGE,South Hadley,MA,1,42.257588,-72.573625,3,56964.0,,43886.0,43886.0,,0.8518,0.8577,0.8065,0.7442,0.7805,,,0.7931,0.916,0.875,0.5008,,,Mount Holyoke College,Liberal Arts,"$42,400.00","$94,100.00",,"$57,100.00","$131,000.00",
91,1683,167835,SMITHCOLLEGE,Northampton,MA,1,42.317933,-72.638094,3,62300.0,,46288.0,46288.0,,0.8662,0.8571,0.8,0.8654,0.9155,1.0,,0.8148,0.8902,0.8682,0.3789,,,Smith College,Liberal Arts,"$44,000.00","$83,900.00","$45,100.00","$59,800.00","$129,000.00","$184,000.00"
92,1687,167987,UNIVERSITYOFMASSACHUSETTSDARTMOUTH,North Dartmouth,MA,1,41.628861,-71.005528,3,24539.0,,12588.0,26173.0,,0.4562,0.4757,0.4125,0.2821,0.3125,0.5556,,,0.3333,0.4557,0.7626,1025.0,22.0,University of Massachusetts (UMass) - Dartmouth,State,"$43,200.00","$77,700.00","$43,300.00","$56,200.00","$107,000.00","$132,000.00"
93,1692,168218,WELLESLEYCOLLEGE,Wellesley,MA,1,42.293765,-71.30796600000002,3,61088.0,,46836.0,46836.0,,0.9319,0.9301,0.871,0.9444,0.9256,1.0,1.0,0.9,0.9753,0.8333,0.2985,1369.0,30.0,Wellesley College,Liberal Arts,"$42,800.00","$83,500.00",,"$58,600.00","$125,000.00",
94,1693,168227,WENTWORTHINSTITUTEOFTECHNOLOGY,Boston,MA,1,42.336632,-71.094983,3,48907.0,,32500.0,32500.0,,0.6678,0.6877,0.6053,0.5938,0.6364,1.0,,,0.5185,0.6597,0.6667,1104.0,25.0,Wentworth Institute of Technology,Engineering,"$53,000.00","$96,700.00","$55,200.00","$74,000.00","$117,000.00","$153,000.00"
95,1698,168342,WILLIAMSCOLLEGE,Williamstown,MA,1,42.711669,-73.205888,3,64020.0,,50070.0,50070.0,,0.956,0.9606,0.907,0.9153,0.9839,1.0,,1.0,0.9677,,0.1761,1442.0,33.0,Williams College,Liberal Arts,"$51,700.00","$102,000.00",,"$76,400.00","$143,000.00",
96,1699,168421,WORCESTERPOLYTECHNICINSTITUTE,Worcester,MA,1,42.275067,-71.80879200000003,3,59110.0,,45590.0,45590.0,,0.8486,0.8502,0.7931,0.8214,0.84,1.0,,0.9524,0.8605,0.8,0.4855,,,Worcester Polytechnic Institute (WPI),Engineering,"$61,000.00","$114,000.00","$80,000.00","$91,200.00","$137,000.00","$180,000.00"
97,1733,169798,EASTERNMICHIGANUNIVERSITY,Ypsilanti,MI,3,42.245751,-83.624499,3,19570.0,,10417.0,27712.0,,0.4007,0.4599,0.2794,0.3966,0.439,0.2667,0.0,,0.6486,0.3303,0.7478,1029.0,22.0,Eastern Michigan University,State,"$40,300.00","$72,100.00","$37,900.00","$52,800.00","$95,400.00","$135,000.00"
98,1764,171100,MICHIGANSTATEUNIVERSITY,East Lansing,MI,3,42.73212,-84.476111,3,24976.0,,13560.0,36360.0,,0.7717,0.8051,0.5933,0.6106,0.8017,0.5806,0.8333,0.8718,0.7048,0.7627,0.6628,1159.0,26.0,Michigan State University (MSU),State,"$46,300.00","$85,300.00","$44,200.00","$61,500.00","$119,000.00","$170,000.00"
99,1802,172644,WAYNESTATEUNIVERSITY,Detroit,MI,3,42.35861,-83.072864,3,21588.0,,11814.0,25254.0,,0.3461,0.4762,0.1233,0.2809,0.615,0.2857,,,0.3929,0.4921,0.7987,1070.0,23.0,Wayne State University,State,"$42,800.00","$76,100.00","$40,100.00","$56,200.00","$101,000.00","$139,000.00"
100,1805,172699,WESTERNMICHIGANUNIVERSITY,Kalamazoo,MI,3,42.282589,-85.61511999999998,3,22561.0,,11029.0,25713.0,,0.5443,0.5667,0.3989,0.5273,0.5902,0.3333,,,0.7188,0.5124,0.8238,1030.0,22.0,Western Michigan University (WMU),State,"$42,300.00","$73,800.00","$40,100.00","$52,500.00","$103,000.00","$135,000.00"
101,1821,173258,CARLETONCOLLEGE,Northfield,MN,4,44.462304,-93.154662,3,62465.0,,49263.0,49263.0,,0.9451,0.9545,0.875,0.9211,0.925,,,0.931,0.9767,0.8,0.2065,1400.0,31.0,Carleton College,Liberal Arts,"$47,500.00","$103,000.00",,"$69,400.00","$141,000.00",
102,1832,173647,GUSTAVUSADOLPHUSCOLLEGE,Saint Peter,MN,4,44.324968,-93.971928,3,51498.0,,41620.0,41620.0,,0.82,0.8152,0.88,0.6667,0.9444,0.8333,,,0.8,0.7143,0.6706,,,Gustavus Adolphus College,Liberal Arts,"$44,500.00","$80,600.00",,"$49,300.00","$101,000.00",
103,1845,173920,MINNESOTASTATEUNIVERSITYMANKATO,Mankato,MN,4,44.147253000000006,-93.998494,3,18577.0,,7836.0,15580.0,,0.487,0.5119,0.2713,0.3448,0.381,0.5,1.0,0.4032,0.5263,0.4815,0.6663,1030.0,22.0,Minnesota State University - Mankato,State,"$43,300.00","$74,700.00","$39,500.00","$53,800.00","$95,700.00","$140,000.00"
104,1923,176017,UNIVERSITYOFMISSISSIPPI,University,MS,5,34.362144,-89.539377,3,22704.0,,7444.0,20674.0,,0.6113,0.6397,0.4749,0.5854,0.6429,0.6364,0.4,0.5185,0.5652,0.4286,0.7873,1118.0,25.0,University of Mississippi,Party,"$41,400.00","$79,700.00","$40,400.00","$53,500.00","$108,000.00","$186,000.00"
105,1923,176017,UNIVERSITYOFMISSISSIPPI,University,MS,5,34.362144,-89.539377,3,22704.0,,7444.0,20674.0,,0.6113,0.6397,0.4749,0.5854,0.6429,0.6364,0.4,0.5185,0.5652,0.4286,0.7873,1118.0,25.0,University of Mississippi,State,"$41,400.00","$79,700.00","$40,400.00","$53,500.00","$108,000.00","$186,000.00"
106,1929,176080,MISSISSIPPISTATEUNIVERSITY,Mississippi State,MS,5,33.454809000000004,-88.788979,3,22525.0,,7502.0,20142.0,,0.6003,0.6457,0.4495,0.5106,0.625,0.2222,0.6,0.5278,0.75,0.4348,0.6524,1140.0,25.0,Mississippi State University (MSU),State,"$44,500.00","$79,300.00","$43,300.00","$58,800.00","$108,000.00","$151,000.00"
107,2004,178396,UNIVERSITYOFMISSOURICOLUMBIA,Columbia,MO,4,38.941015,-92.326429,3,23298.0,,9509.0,25166.0,,0.6877,0.7103,0.5462,0.5933,0.6667,0.5769,,,0.6596,0.6162,0.7813,1203.0,27.0,University of Missouri - Columbia,State,"$41,700.00","$81,000.00","$43,500.00","$57,100.00","$111,000.00","$156,000.00"
108,2005,178402,UNIVERSITYOFMISSOURIKANSASCITY,Kansas City,MO,4,39.035366,-94.578039,3,20927.0,,7837.0,18366.0,,0.5005,0.5116,0.3436,0.4074,0.7128,0.6,1.0,0.2222,0.5357,0.5758,0.6271,1130.0,25.0,University of Missouri - Kansas City (UMKC),State,"$38,900.00","$65,800.00","$36,300.00","$48,100.00","$95,800.00","$124,000.00"
109,2058,180179,MONTANASTATEUNIVERSITYBILLINGS,Billings,MT,7,45.796896,-108.523009,3,15584.0,,5808.0,17842.0,,0.2517,0.2649,0.125,0.1071,0.0,0.1212,,0.2857,0.75,0.3,,,,Montana State University - Billings,State,"$37,900.00","$50,600.00","$22,600.00","$31,800.00","$78,500.00","$98,900.00"
110,2096,181394,UNIVERSITYOFNEBRASKAATOMAHA,Omaha,NE,4,41.257746,-96.010797,3,17148.0,,6898.0,18610.0,,0.4654,0.481,0.2773,0.4602,0.4375,0.4286,,,0.6,0.451,0.7594,1050.0,23.0,University of Nebraska at Omaha,State,"$41,500.00","$72,600.00","$39,500.00","$54,400.00","$97,400.00","$126,000.00"
111,2118,182281,UNIVERSITYOFNEVADALASVEGAS,Las Vegas,NV,8,36.106994,-115.141153,3,16791.0,,6943.0,20853.0,,0.4048,0.4292,0.2604,0.3465,0.4708,0.1053,0.3095,0.4711,0.5636,0.4898,0.8841,1007.0,22.0,"University of Nevada, Las Vegas (UNLV)",State,"$45,200.00","$71,600.00","$39,000.00","$52,400.00","$100,000.00","$128,000.00"
112,2119,182290,UNIVERSITYOFNEVADARENO,Reno,NV,8,39.545052,-119.818424,3,20542.0,,6902.0,20812.0,,0.5862,0.6044,0.4512,0.4899,0.7123,0.375,0.5217,0.58,0.625,0.6667,0.7852,1084.0,24.0,"University of Nevada, Reno (UNR)",State,"$46,500.00","$82,900.00","$41,900.00","$54,600.00","$113,000.00","$143,000.00"
113,2127,182670,DARTMOUTHCOLLEGE,Hanover,NH,1,43.70408,-72.289951,3,65133.0,,49506.0,49506.0,,0.9414,0.9583,0.92,0.962,0.9451,0.8333,1.0,1.0,0.9063,0.9123,0.1097,1437.0,32.0,Dartmouth College,Ivy League,"$58,000.00","$134,000.00","$63,100.00","$90,200.00","$234,000.00","$321,000.00"
114,2217,186131,PRINCETONUNIVERSITY,Princeton,NJ,2,40.34853,-74.66360300000002,3,59665.0,,43450.0,43450.0,,0.9684,0.9732,0.9688,0.9545,0.9654,0.8333,1.0,1.0,0.9603,0.9565,0.0714,1490.0,34.0,Princeton University,Ivy League,"$66,500.00","$131,000.00","$68,900.00","$100,000.00","$190,000.00","$261,000.00"
115,2234,186867,STEVENSINSTITUTEOFTECHNOLOGY,Hoboken,NJ,2,40.744776,-74.025334,3,62385.0,,47190.0,47190.0,,0.8162,0.8253,0.7059,0.7547,0.8393,,,,0.7273,0.8372,0.4356,1340.0,31.0,Stevens Institute of Technology,Engineering,"$60,600.00","$105,000.00","$68,700.00","$81,900.00","$138,000.00","$185,000.00"
116,2256,187967,NEWMEXICOINSTITUTEOFMININGANDTECHNOLOGY,Socorro,NM,6,34.066035,-106.907491,3,19401.0,,6613.0,19137.0,,0.4902,0.5541,0.4,0.4156,0.3333,0.3333,,0.0,,,0.2445,1191.0,26.0,New Mexico Institute of Mining and Technology (New Mexico Tech),Engineering,"$51,000.00","$93,400.00",,"$67,400.00","$123,000.00",
117,2329,190099,COLGATEUNIVERSITY,Hamilton,NY,2,42.8188,-75.535,3,62405.0,,49970.0,49970.0,,0.8959999999999999,0.9083,0.8065,0.82,0.8857,1.0,,0.9231,0.8837,0.8947,0.2736,1374.0,32.0,Colgate University,Liberal Arts,"$52,800.00","$108,000.00","$60,000.00","$76,700.00","$167,000.00","$265,000.00"
118,2339,190415,CORNELLUNIVERSITY,Ithaca,NY,2,42.447199,-76.483489,3,63596.0,,49116.0,49116.0,,0.9348,0.9579,0.8643,0.9077,0.9471,0.7,1.0,0.9063,0.9097,0.9148,0.1507,1428.0,32.0,Cornell University,Ivy League,"$60,300.00","$110,000.00","$56,800.00","$79,800.00","$160,000.00","$210,000.00"
119,2384,191515,HAMILTONCOLLEGE,Clinton,NY,2,43.047809,-75.40885300000002,3,61770.0,,49500.0,49500.0,,0.9206,0.9244,0.85,0.9524,0.8864,1.0,,1.0,0.9615,0.9091,0.2481,,,Hamilton College,Liberal Arts,"$49,200.00","$83,700.00",,"$51,900.00","$123,000.00",
120,2481,194824,RENSSELAERPOLYTECHNICINSTITUTE,Troy,NY,2,42.728983,-73.678768,3,64198.0,,49341.0,49341.0,,0.8123,0.8283,0.5938,0.7324,0.8382,0.3333,0.6667,0.7447,0.7818,0.8261,0.4187,1368.0,30.0,Rensselaer Polytechnic Institute (RPI),Engineering,"$61,100.00","$110,000.00","$71,600.00","$85,500.00","$140,000.00","$182,000.00"
121,2484,195003,ROCHESTERINSTITUTEOFTECHNOLOGY,Rochester,NY,2,43.090325,-77.67520999999998,3,49013.0,,37124.0,37124.0,,0.6758,0.7034,0.5346,0.5617,0.6142,0.5,,,0.7931,0.6145,0.5727,1251.0,29.0,Rochester Institute of Technology (RIT),Engineering,"$48,900.00","$84,600.00","$45,000.00","$62,100.00","$112,000.00","$159,000.00"
122,2500,195474,SIENACOLLEGE,Loudonville,NY,2,42.718586,-73.75153,3,48809.0,,33415.0,33415.0,,0.7509999999999999,0.753,0.6667,0.6939,0.8846,1.0,,0.8182,0.875,0.5455,0.7602,,,Siena College,Liberal Arts,"$45,500.00","$85,200.00","$38,700.00","$58,400.00","$129,000.00","$189,000.00"
123,2501,195526,SKIDMORECOLLEGE,Saratoga Springs,NY,2,43.092696,-73.785108,3,62750.0,,49120.0,49120.0,,0.8597,0.8543,0.875,0.9167,1.0,0.0,1.0,0.8182,0.9474,0.6471,0.365,1239.0,28.0,Skidmore College,Liberal Arts,"$41,600.00","$74,600.00",,"$42,800.00","$147,000.00",
124,2521,196097,STONYBROOKUNIVERSITY,Stony Brook,NY,2,40.913138,-73.123595,3,22000.0,,8855.0,23935.0,,0.6834,0.6471,0.7115,0.585,0.76,0.0,,,0.6927,0.6752,0.4099,1271.0,29.0,Stony Brook University,State,"$49,500.00","$93,000.00","$47,200.00","$67,100.00","$129,000.00","$181,000.00"
125,2560,197133,VASSARCOLLEGE,Poughkeepsie,NY,2,41.685105,-73.894345,3,63390.0,,51250.0,51250.0,,0.9058,0.9047,0.8529,0.9041,0.9483,0.0,,0.9167,0.9211,,0.2573,1405.0,32.0,Vassar College,Liberal Arts,"$46,000.00","$94,600.00",,"$60,600.00","$123,000.00",
126,2582,197869,APPALACHIANSTATEUNIVERSITY,Boone,NC,5,36.214844,-81.680234,3,19359.0,,6852.0,20677.0,,0.7097,0.7185,0.6627,0.7073,0.6563,0.25,1.0,0.5517,0.6,0.5,0.6638,1157.0,26.0,Appalachian State University,State,"$40,400.00","$69,100.00","$37,200.00","$50,400.00","$90,800.00","$115,000.00"
127,2608,198385,DAVIDSONCOLLEGE,Davidson,NC,5,35.500006,-80.845236,3,60921.0,,46966.0,46966.0,,0.9343,0.9507,0.9118,0.9474,0.9524,0.5,,1.0,0.9231,0.7742,0.2213,1355.0,31.0,Davidson College,Liberal Arts,"$46,100.00","$104,000.00",,"$70,500.00","$146,000.00",
128,2611,198464,EASTCAROLINAUNIVERSITY,Greenville,NC,5,35.606347,-77.366199,3,21040.0,,6580.0,22154.0,,0.6213,0.6289,0.5877,0.6019,0.5765,0.52,,0.5714,0.5294,0.6464,0.6904,1053.0,23.0,East Carolina University (ECU),State,"$40,200.00","$67,500.00","$38,400.00","$52,000.00","$98,700.00","$151,000.00"
129,2656,199120,UNIVERSITYOFNORTHCAROLINAATCHAPELHILL,Chapel Hill,NC,5,35.912165,-79.050969,3,23940.0,,8591.0,33673.0,,0.9019,0.916,0.8484,0.885,0.9213,0.8,,,0.7976,0.8889,0.3054,1343.0,31.0,University of North Carolina at Chapel Hill (UNCH),State,"$42,900.00","$81,500.00","$43,400.00","$57,500.00","$117,000.00","$155,000.00"
130,2657,199139,UNIVERSITYOFNORTHCAROLINAATCHARLOTTE,Charlotte,NC,5,35.306834,-80.73579000000002,3,18372.0,,6532.0,19703.0,,0.5336,0.5269,0.5472,0.5073,0.5329,0.7143,0.4,0.4627,0.6517,0.5847,0.6331,1093.0,24.0,University of North Carolina at Charlotte (UNCC),State,"$43,100.00","$74,000.00","$38,200.00","$53,200.00","$99,500.00","$133,000.00"
131,2708,200004,WESTERNCAROLINAUNIVERSITY,Cullowhee,NC,5,35.31110200000001,-83.18210400000002,3,18923.0,,6623.0,17016.0,,0.5747,0.5802,0.6121,0.6667,0.6364,0.5,,0.6,0.2,0.4828,0.4027,1032.0,22.0,Western Carolina University,State,"$36,900.00","$66,600.00","$39,000.00","$49,500.00","$94,400.00","$133,000.00"
132,2723,200280,UNIVERSITYOFNORTHDAKOTA,Grand Forks,ND,4,47.919774,-97.073451,3,20657.0,,7965.0,18899.0,,0.5416,0.5573,0.4,0.32,0.5625,0.25,1.0,0.625,0.4706,0.4884,0.8189,1088.0,24.0,University of North Dakota,State,"$44,000.00","$80,600.00","$43,400.00","$56,400.00","$111,000.00","$157,000.00"
133,2784,202134,CLEVELANDSTATEUNIVERSITY,Cleveland,OH,3,41.502918,-81.673052,3,21932.0,,9696.0,12938.0,,0.3878,0.4562,0.1619,0.4314,0.4444,0.4286,,,0.6364,0.3964,0.6408,1028.0,22.0,Cleveland State University,State,"$43,500.00","$73,100.00","$39,500.00","$51,600.00","$97,000.00","$137,000.00"
134,2794,202523,DENISONUNIVERSITY,Granville,OH,3,40.072582,-82.520625,3,58620.0,,47290.0,47290.0,,0.7982,0.8025,0.7551,0.65,0.8235,0.5,,0.8438,0.8372,,0.4789,,,Denison University,Liberal Arts,"$42,000.00","$83,500.00",,"$62,100.00","$122,000.00",
135,2865,204501,OBERLINCOLLEGE,Oberlin,OH,3,41.29474,-82.221786,3,64396.0,,50582.0,50582.0,,0.8755,0.8836,0.8276,0.8837,0.9063,0.75,,0.8936,0.7843,0.8,0.2878,1357.0,31.0,Oberlin College,Liberal Arts,"$43,400.00","$81,600.00",,"$46,400.00","$128,000.00",
136,2919,206084,UNIVERSITYOFTOLEDO,Toledo,OH,3,41.65795,-83.615225,3,22057.0,,9547.0,18885.0,,0.4073,0.5096,0.1723,0.3386,0.5616,0.2,0.1667,0.2366,0.6282,0.3478,0.932,1069.0,23.0,University of Toledo,State,"$43,100.00","$75,900.00","$40,100.00","$54,100.00","$100,000.00","$133,000.00"
137,2937,206525,WITTENBERGUNIVERSITY,Springfield,OH,3,39.937463,-83.814082,3,49790.0,,38090.0,38090.0,,0.6352,0.6759,0.3889,0.4545,1.0,0.5,,0.1818,0.8,0.5769,0.7686,,,Wittenberg University,Liberal Arts,"$39,200.00","$78,200.00",,"$54,100.00","$131,000.00",
138,3026,209056,LEWIS&CLARKCOLLEGE,Portland,OR,8,45.450547,-122.672478,3,57656.0,,45104.0,45104.0,,0.7247,0.688,0.7857,0.7576,0.7949,0.625,,0.8571,0.8333,0.7423,0.6283,,,Lewis & Clark College,Liberal Arts,"$38,900.00","$72,600.00","$38,200.00","$53,400.00","$104,000.00","$140,000.00"
139,3041,209542,OREGONSTATEUNIVERSITY,Corvallis,OR,8,44.56274000000001,-123.274721,3,24418.0,,10107.0,28767.0,,0.643,0.6438,0.4211,0.5475,0.7235,0.4359,0.4375,0.9565,0.6176,0.6787,0.7836,1113.0,25.0,Oregon State University (OSU),State,"$45,100.00","$83,300.00","$46,900.00","$64,000.00","$113,000.00","$146,000.00"
140,3042,209551,UNIVERSITYOFOREGON,Eugene,OR,8,44.044515,-123.07398,3,23373.0,,10289.0,32024.0,,0.7144,0.7143,0.5614,0.657,0.8029999999999999,0.5,0.7727,0.757,0.6828,0.7603,0.7422,1119.0,25.0,University of Oregon,State,"$42,200.00","$78,400.00","$38,100.00","$56,200.00","$117,000.00","$186,000.00"
141,3051,209807,PORTLANDSTATEUNIVERSITY,Portland,OR,8,45.511229,-122.683553,3,20130.0,,8034.0,24009.0,,0.4197,0.4127,0.2414,0.4316,0.4785,0.3182,0.3636,0.4483,0.4848,0.4255,0.8568,1039.0,22.0,Portland State University (PSU),State,"$42,600.00","$70,900.00","$40,700.00","$52,300.00","$94,400.00","$123,000.00"
142,3053,209922,REEDCOLLEGE,Portland,OR,8,45.480376,-122.63064,3,61795.0,,49940.0,49940.0,,0.8174,0.8446,0.4444,0.7742,0.72,1.0,,0.8235,0.7778,0.8493,0.3499,1383.0,31.0,Reed College,Liberal Arts,"$40,500.00","$81,100.00",,"$67,400.00","$101,000.00",
143,3097,211291,BUCKNELLUNIVERSITY,Lewisburg,PA,2,40.954489,-76.886275,3,63040.0,,50152.0,50152.0,,0.8989,0.9007,0.8438,0.8966,0.92,1.0,,1.0,0.8,0.9231,0.2478,1315.0,30.0,Bucknell University,Liberal Arts,"$54,100.00","$110,000.00","$62,800.00","$80,600.00","$156,000.00","$251,000.00"
144,3106,211440,CARNEGIEMELLONUNIVERSITY,Pittsburgh,PA,2,40.444616,-79.942914,3,63804.0,,50665.0,50665.0,,0.8777,0.8957,0.8,0.7872,0.9176,0.9,,,0.8313,0.8525,0.2372,1448.0,33.0,Carnegie Mellon University (CMU),Engineering,"$61,800.00","$111,000.00","$63,300.00","$80,100.00","$150,000.00","$209,000.00"
145,3148,212577,FRANKLINANDMARSHALLCOLLEGE,Lancaster,PA,2,40.048045,-76.319037,3,63172.0,,50400.0,50400.0,,0.868,0.8779,0.7222,0.8298,0.85,0.0,,0.9474,0.9268,0.5,0.3226,,,Franklin and Marshall College,Liberal Arts,"$49,100.00","$92,800.00",,"$55,800.00","$185,000.00",
146,3151,212674,GETTYSBURGCOLLEGE,Gettysburg,PA,2,39.836091,-77.23498199999997,3,60320.0,,49140.0,49140.0,,0.8347,0.843,0.8929,0.6957,1.0,1.0,,0.6667,0.8462,0.7606,0.3977,,,Gettysburg College,Liberal Arts,"$44,700.00","$85,800.00",,"$66,300.00","$132,000.00",
147,3168,213251,JUNIATACOLLEGE,Huntingdon,PA,2,40.499511,-78.015204,3,51507.0,,40600.0,40600.0,,0.735,0.7587,0.7692,0.6,1.0,0.5,,0.3333,0.5333,,0.7692,,,Juniata College,Liberal Arts,"$41,800.00","$78,900.00",,"$67,200.00","$110,000.00",
148,3176,213385,LAFAYETTECOLLEGE,Easton,PA,2,40.700512,-75.209058,3,61905.0,,47760.0,47760.0,,0.8961,0.8908,0.9643,0.8421,0.9545,,1.0,1.0,0.8864,0.8968,0.3025,1294.0,29.0,Lafayette College,Liberal Arts,"$53,900.00","$107,000.00","$70,600.00","$79,300.00","$144,000.00","$204,000.00"
149,3208,214157,MORAVIANCOLLEGE,Bethlehem,PA,2,40.630888,-75.38097900000002,3,49902.0,,38832.0,38832.0,,0.6859999999999999,0.6967,0.6364,0.6111,0.625,1.0,1.0,0.8889,0.0,0.0,0.7457,1006.0,21.0,Moravian College,Liberal Arts,"$42,500.00","$74,400.00",,"$56,700.00","$94,900.00",
150,3251,215062,UNIVERSITYOFPENNSYLVANIA,Philadelphia,PA,2,39.951002,-75.193618,3,64200.0,,49536.0,49536.0,,0.9534,0.9609,0.9351,0.9186,0.9674,0.9167,,,0.96,0.9408,0.1016,1457.0,33.0,University of Pennsylvania,Ivy League,"$60,900.00","$120,000.00","$55,900.00","$79,200.00","$192,000.00","$282,000.00"
151,3299,216287,SWARTHMORECOLLEGE,Swarthmore,PA,2,39.904081,-75.356066,3,62450.0,,47442.0,47442.0,,0.9391,0.9455,0.8519,0.9388,0.9811,1.0,,0.92,0.8846,0.9556,0.1248,1431.0,32.0,Swarthmore College,Liberal Arts,"$49,700.00","$104,000.00",,"$67,200.00","$167,000.00",
152,3312,216524,URSINUSCOLLEGE,Collegeville,PA,2,40.19405,-75.45565400000002,3,60674.0,,47700.0,47700.0,,0.778,0.7931,0.64,0.7692,0.8,,,1.0,0.5,0.6667,0.8261,,,Ursinus College,Liberal Arts,"$42,100.00","$80,000.00","$35,600.00","$54,300.00","$100,000.00","$160,000.00"
153,3334,217156,BROWNUNIVERSITY,Providence,RI,1,41.827605,-71.40446700000003,3,62694.0,,49346.0,49346.0,,0.9597,0.9712,0.9178,0.9441,0.9493,0.8,1.0,0.9773,0.9379,0.9776,0.0949,1457.0,33.0,Brown University,Ivy League,"$56,200.00","$109,000.00","$55,400.00","$74,400.00","$159,000.00","$228,000.00"
154,3343,217484,UNIVERSITYOFRHODEISLAND,Kingston,RI,1,41.484691,-71.52735600000003,3,27100.0,,12862.0,28852.0,,0.6321,0.6578,0.4667,0.4894,0.6216,0.375,0.5,,0.1538,0.648,0.7355,1077.0,24.0,University of Rhode Island (URI),State,"$43,900.00","$85,300.00","$45,400.00","$60,100.00","$112,000.00","$157,000.00"
155,3364,217882,CLEMSONUNIVERSITY,Clemson,SC,5,34.677329,-82.834463,3,26373.0,,14272.0,33190.0,,0.8091,0.8258,0.6525,0.7581,0.7391,0.4444,1.0,0.78,0.7143,0.875,0.5127,1275.0,29.0,Clemson University,State,"$48,400.00","$86,000.00","$50,500.00","$61,800.00","$111,000.00","$150,000.00"
156,3414,219046,BLACKHILLSSTATEUNIVERSITY,Spearfish,SD,4,44.495536,-103.870009,3,18430.0,,8004.0,10586.0,,0.3611,0.3784,0.25,0.3158,1.0,0.1176,,0.2222,0.8,0.0,0.8404,988.0,21.0,Black Hills State University,State,"$35,300.00","$43,900.00","$27,000.00","$32,200.00","$60,900.00","$87,600.00"
157,3431,219356,SOUTHDAKOTASTATEUNIVERSITY,Brookings,SD,4,44.31942,-96.783415,3,24820.0,,8172.0,11053.0,,0.5414,0.5596,0.3077,0.2778,0.5,0.1875,0.0,0.4444,0.7857,0.0,0.917,1068.0,23.0,South Dakota State University (SDSU),State,"$41,100.00","$73,500.00","$34,100.00","$49,900.00","$99,400.00","$129,000.00"
158,3444,219602,AUSTINPEAYSTATEUNIVERSITY,Clarksville,TN,5,36.533319,-87.35408100000002,3,19720.0,,7501.0,22333.0,,0.3631,0.3776,0.2952,0.3919,0.3889,0.4286,0.25,0.3448,0.5,0.3143,0.8771,1011.0,22.0,Austin Peay State University,State,"$37,700.00","$59,200.00","$32,200.00","$40,500.00","$73,900.00","$96,200.00"
159,3493,220862,UNIVERSITYOFMEMPHIS,Memphis,TN,5,35.118874,-89.938062,3,22160.0,,8903.0,20615.0,,0.4505,0.508,0.3632,0.4615,0.5660000000000001,0.5556,,0.4688,0.4286,0.3949,0.3978,1029.0,22.0,University of Memphis (U of M),State,"$41,400.00","$69,700.00","$36,100.00","$49,100.00","$93,500.00","$127,000.00"
160,3530,221847,TENNESSEETECHNOLOGICALUNIVERSITY,Cookeville,TN,5,36.17465900000001,-85.503957,3,22514.0,,8011.0,23443.0,,0.5279,0.5352,0.4459,0.4255,0.5714,0.625,0.5,0.4138,0.5625,0.5,0.6832,1102.0,24.0,Tennessee Technological University,Engineering,"$46,200.00","$80,000.00","$42,100.00","$62,600.00","$99,500.00","$121,000.00"
161,3605,225511,UNIVERSITYOFHOUSTON,Houston,TX,6,29.719988,-95.344851,3,23267.0,,8759.0,20519.0,,0.5097,0.5248,0.378,0.458,0.6107,0.4,,,0.6961,0.4063,0.5972,1154.0,26.0,University of Houston (UH),State,"$46,000.00","$79,900.00","$42,000.00","$56,200.00","$106,000.00","$141,000.00"
162,3617,226091,LAMARUNIVERSITY,Beaumont,TX,6,30.044274,-94.073389,3,18852.0,,8002.0,17362.0,,0.321,0.3549,0.2487,0.368,0.5294,0.2,,,0.4375,0.5333,0.7911,974.0,21.0,Lamar University,State,"$46,500.00","$79,400.00","$38,700.00","$51,600.00","$114,000.00","$158,000.00"
163,3690,228529,TARLETONSTATEUNIVERSITY,Stephenville,TX,6,32.215665,-98.22008,3,17952.0,,6630.0,15990.0,,0.4399,0.4601,0.2344,0.3798,0.3,0.7778,,,0.3333,0.0,0.4967,959.0,21.0,Tarleton State University (TSU),State,"$40,800.00","$62,400.00","$32,100.00","$47,400.00","$80,400.00","$126,000.00"
164,3750,230603,SOUTHERNUTAHUNIVERSITY,Cedar City,UT,7,37.674617,-113.070146,3,18866.0,,6300.0,19132.0,,0.4685,0.5053,0.2353,0.3269,0.2222,0.1053,0.2222,0.0,0.1875,0.4667,0.7214,1078.0,24.0,Southern Utah University,State,"$41,900.00","$56,500.00","$30,700.00","$39,700.00","$78,400.00","$116,000.00"
165,3754,230728,UTAHSTATEUNIVERSITY,Logan,UT,7,41.740748,-111.81391,3,16702.0,,7260.0,19760.0,,0.4869,0.5106,0.48,0.33,0.3784,0.1842,,,0.5765,0.4488,0.9667,1084.0,24.0,Utah State University,State,"$43,800.00","$78,700.00","$41,600.00","$55,400.00","$101,000.00","$132,000.00"
166,3757,230764,UNIVERSITYOFUTAH,Salt Lake City,UT,7,40.762484,-111.846044,3,19447.0,,8197.0,26022.0,,0.6384,0.6443,0.3529,0.5369,0.6940000000000001,0.4375,0.6842,0.6667,0.6923,0.7111,0.8143,1130.0,25.0,University of Utah,State,"$45,400.00","$83,200.00","$43,000.00","$58,400.00","$116,000.00","$148,000.00"
167,3769,230959,MIDDLEBURYCOLLEGE,Middlebury,VT,1,44.009117,-73.176068,3,61160.0,,47828.0,47828.0,,0.9436,0.9571,1.0,0.9565,0.9211,0.5,,0.9583,0.8852,0.8846,0.1744,1383.0,31.0,Middlebury College,Liberal Arts,"$47,700.00","$94,200.00",,"$69,100.00","$129,000.00",
168,3780,231174,UNIVERSITYOFVERMONT,Burlington,VT,1,44.479262,-73.198128,3,29332.0,,16768.0,39160.0,,0.7679,0.7712,0.7143,0.7857,0.75,1.0,,,0.6667,0.7294,0.7085,1211.0,28.0,University of Vermont (UVM),State,"$44,800.00","$82,700.00","$44,700.00","$58,000.00","$122,000.00","$194,000.00"
169,3804,232186,GEORGEMASONUNIVERSITY,Fairfax,VA,5,38.83088,-77.30794,3,23607.0,,10952.0,31598.0,,0.6920000000000001,0.6904,0.7078,0.6847,0.7333,0.5,0.8,0.674,0.4783,0.6798,0.6887,1153.0,26.0,George Mason University,State,"$47,800.00","$86,900.00","$51,300.00","$67,200.00","$114,000.00","$150,000.00"
170,3837,233295,RANDOLPHMACONCOLLEGE,Ashland,VA,5,37.749654,-77.47225300000002,3,48970.0,,37600.0,37600.0,,0.5773,0.5972,0.5333,0.3333,0.4444,0.5,,,0.5714,0.3333,0.6637,1098.0,25.0,Randolph-Macon College,Party,"$42,600.00","$83,600.00",,"$54,100.00","$123,000.00",
171,3837,233295,RANDOLPHMACONCOLLEGE,Ashland,VA,5,37.749654,-77.47225300000002,3,48970.0,,37600.0,37600.0,,0.5773,0.5972,0.5333,0.3333,0.4444,0.5,,,0.5714,0.3333,0.6637,1098.0,25.0,Randolph-Macon College,Liberal Arts,"$42,600.00","$83,600.00",,"$54,100.00","$123,000.00",
172,3843,233374,UNIVERSITYOFRICHMOND,University of Richmond,VA,5,37.577625,-77.538702,3,59569.0,,48090.0,48090.0,,0.8769,0.8871,0.8625,0.8654,0.8987,1.0,,,0.8085,0.8618,0.3111,1337.0,31.0,University of Richmond,Liberal Arts,"$48,600.00","$94,600.00","$44,500.00","$59,400.00","$151,000.00","$211,000.00"
173,3860,233921,VIRGINIAPOLYTECHNICINSTITUTEANDSTATEUNIVERSITY,Blacksburg,VA,5,37.228572,-80.423229,3,25837.0,,12485.0,29129.0,,0.8334,0.8438,0.716,0.823,0.8308,0.8889,1.0,0.8,0.7711,0.7586,0.7341,1210.0,,Virginia Polytechnic Institute and State University (Virginia Tech),Engineering,"$53,500.00","$95,400.00","$50,600.00","$71,400.00","$124,000.00","$163,000.00"
174,3862,234030,VIRGINIACOMMONWEALTHUNIVERSITY,Richmond,VA,5,37.547631,-77.453597,3,28631.0,,12772.0,31464.0,,0.6212,0.6125,0.6335,0.5587,0.6894,0.4583,,,0.4868,0.6164,0.7895,1097.0,24.0,Virginia Commonwealth University (VCU),State,"$42,000.00","$68,400.00","$37,400.00","$51,900.00","$100,000.00","$123,000.00"
175,3871,234207,WASHINGTONANDLEEUNIVERSITY,Lexington,VA,5,37.787832,-79.445724,3,61310.0,,46417.0,46417.0,,0.9087,0.9205,0.75,0.875,0.9474,1.0,,1.0,0.8077,1.0,0.2388,1395.0,32.0,Washington and Lee University,Liberal Arts,"$53,600.00","$104,000.00",,"$82,800.00","$146,000.00",
176,3892,235097,EASTERNWASHINGTONUNIVERSITY,Cheney,WA,8,47.491293,-117.589371,3,20538.0,,7866.0,22272.0,,0.4578,0.4979,0.3448,0.3946,0.3784,0.25,0.4,0.4082,0.3333,0.4286,0.8208,970.0,21.0,Eastern Washington University,State,"$38,600.00","$70,900.00","$36,000.00","$50,500.00","$93,100.00","$117,000.00"
177,3922,236328,UNIVERSITYOFPUGETSOUND,Tacoma,WA,8,47.263651,-122.479714,3,57877.0,,44976.0,44976.0,,0.7829999999999999,0.8099,0.4167,0.6279,0.8649,0.6667,1.0,0.6866,0.75,0.8,0.7922,,,University of Puget Sound,Liberal Arts,"$46,600.00","$81,500.00","$48,900.00","$60,100.00","$104,000.00","$137,000.00"
178,3939,236939,WASHINGTONSTATEUNIVERSITY,Pullman,WA,8,46.730448,-117.158168,3,27402.0,,11967.0,25567.0,,0.6419,0.6518,0.4744,0.606,0.6754,0.4595,0.4118,0.6459999999999999,0.7162,0.625,0.7964,1039.0,23.0,Washington State University (WSU),State,"$45,300.00","$84,700.00","$43,600.00","$59,000.00","$113,000.00","$162,000.00"
179,3943,237011,WESTERNWASHINGTONUNIVERSITY,Bellingham,WA,8,48.737236,-122.484873,3,22864.0,,8611.0,20963.0,,0.7127,0.733,0.5938,0.6351,0.6837,0.6226,0.5,0.6729,0.75,0.6479,0.8238,1114.0,25.0,Western Washington University,State,"$42,700.00","$75,400.00","$41,300.00","$56,700.00","$99,200.00","$119,000.00"
180,3945,237057,WHITMANCOLLEGE,Walla Walla,WA,8,46.07135,-118.33016,3,58228.0,,46138.0,46138.0,,0.8734,0.8873,1.0,0.625,0.8621,0.5,1.0,0.9444,1.0,0.8824,0.4272,1314.0,30.0,Whitman College,Liberal Arts,"$43,500.00","$80,100.00",,"$64,800.00","$111,000.00",
181,3992,238032,WESTVIRGINIAUNIVERSITY,Morgantown,WV,5,39.63468,-79.953926,3,18460.0,,7632.0,21432.0,,0.5726,0.5865,0.391,0.3942,0.5846,0.2,0.4,0.5217,0.6,0.6,0.8581,1078.0,24.0,West Virginia University (WVU),Party,"$43,100.00","$78,100.00","$39,700.00","$55,700.00","$106,000.00","$141,000.00"
182,3992,238032,WESTVIRGINIAUNIVERSITY,Morgantown,WV,5,39.63468,-79.953926,3,18460.0,,7632.0,21432.0,,0.5726,0.5865,0.391,0.3942,0.5846,0.2,0.4,0.5217,0.6,0.6,0.8581,1078.0,24.0,West Virginia University (WVU),State,"$43,100.00","$78,100.00","$39,700.00","$55,700.00","$106,000.00","$141,000.00"
183,4043,240189,UNIVERSITYOFWISCONSINWHITEWATER,Whitewater,WI,3,42.835563,-88.742368,3,17195.0,,7637.0,15710.0,,0.5997,0.635,0.2787,0.4828,0.5,0.0,0.6,0.5,0.75,0.3,0.805,1050.0,23.0,University of Wisconsin (UW) - Whitewater,State,"$40,800.00","$75,500.00","$38,200.00","$53,500.00","$99,300.00","$150,000.00"
184,4047,240268,UNIVERSITYOFWISCONSINEAUCLAIRE,Eau Claire,WI,3,44.798431,-91.500432,3,18683.0,,8822.0,16395.0,,0.6458,0.655,0.5714,0.5,0.6232,0.625,,0.6316,0.0833,0.5429,0.852,1110.0,24.0,University of Wisconsin (UW) - Eau Claire,State,"$41,400.00","$64,800.00","$35,000.00","$47,300.00","$93,100.00","$125,000.00"
185,4048,240277,UNIVERSITYOFWISCONSINGREENBAY,Green Bay,WI,3,44.531102,-87.92049899999998,3,17225.0,,7824.0,15397.0,,0.4571,0.4688,0.2727,0.3333,0.3571,0.4286,,0.1667,0.5385,0.5,0.847,1070.0,23.0,University of Wisconsin (UW) - Green Bay,State,"$35,800.00","$60,600.00","$35,500.00","$46,800.00","$81,800.00","$102,000.00"
186,4049,240329,UNIVERSITYOFWISCONSINLACROSSE,La Crosse,WI,3,43.815295,-91.230149,3,17956.0,,8832.0,16783.0,,0.6835,0.7052,0.0909,0.6111,0.413,0.4,,0.5641,0.5417,0.7333,0.8,1130.0,25.0,University of Wisconsin (UW) - La Crosse,State,"$42,200.00","$69,300.00","$37,500.00","$47,200.00","$93,100.00","$133,000.00"
187,4051,240365,UNIVERSITYOFWISCONSINOSHKOSH,Oshkosh,WI,3,44.024985,-88.54928199999998,3,17585.0,,7487.0,15060.0,,0.5091,0.5369,0.2174,0.2308,0.2157,0.1818,0.0,0.4483,0.4286,0.4,0.8149,1030.0,22.0,University of Wisconsin (UW) - Oshkosh,State,"$39,300.00","$66,400.00","$37,700.00","$49,700.00","$90,100.00","$138,000.00"
188,4052,240374,UNIVERSITYOFWISCONSINPARKSIDE,Kenosha,WI,3,42.646074,-87.855407,3,15048.0,,7341.0,15330.0,,0.3312,0.3555,0.2143,0.3176,0.3571,0.0,0.5,0.3,0.5714,0.125,0.8159,970.0,21.0,University of Wisconsin (UW) - Parkside,State,"$40,700.00","$71,400.00","$40,900.00","$53,100.00","$84,900.00","$119,000.00"
189,4054,240417,UNIVERSITYOFWISCONSINSTOUT,Menomonie,WI,3,44.88861,-91.929461,3,18707.0,,9203.0,16949.0,,0.5728,0.5842,0.4286,0.2857,0.5366,0.25,0.0,0.4286,0.3333,0.5556,0.9305,1030.0,22.0,University of Wisconsin (UW) - Stout,State,"$43,600.00","$68,300.00","$40,900.00","$50,600.00","$91,600.00","$136,000.00"
190,4056,240444,UNIVERSITYOFWISCONSINMADISON,Madison,WI,3,43.073858,-89.40535600000003,3,24315.0,,10415.0,29665.0,,0.8495,0.866,0.7353,0.7985,0.8012,0.5556,1.0,0.7724,0.7956,0.8727,0.5761,1300.0,29.0,University of Wisconsin (UW) - Madison,State,"$48,900.00","$87,800.00","$47,400.00","$62,400.00","$118,000.00","$170,000.00"
191,4057,240453,UNIVERSITYOFWISCONSINMILWAUKEE,Milwaukee,WI,3,43.076848,-87.880488,3,20825.0,,9429.0,19603.0,,0.4076,0.4372,0.171,0.297,0.3947,0.2105,0.3333,0.2871,0.6538,0.3944,0.8578,1050.0,23.0,University of Wisconsin (UW) - Milwaukee,State,"$42,300.00","$74,600.00","$40,600.00","$54,000.00","$93,700.00","$123,000.00"
192,4058,240462,UNIVERSITYOFWISCONSINPLATTEVILLE,Platteville,WI,3,42.733936,-90.492709,3,17908.0,,7488.0,15338.0,,0.5402,0.5649,0.1136,0.4,0.2222,0.0,0.0,0.25,0.4,0.4118,0.9431,1090.0,24.0,University of Wisconsin (UW) - Platteville,State,"$45,800.00","$78,500.00","$48,400.00","$61,200.00","$100,000.00","$139,000.00"
193,4060,240480,UNIVERSITYOFWISCONSINSTEVENSPOINT,Stevens Point,WI,3,44.529582,-89.570934,3,16709.0,,7672.0,15939.0,,0.6366,0.6541,0.3125,0.5,0.5714,0.2222,1.0,0.5769,0.3871,0.65,0.9007,1050.0,23.0,University of Wisconsin (UW) - Stevens Point,State,"$39,800.00","$64,000.00","$38,400.00","$45,100.00","$95,400.00","$128,000.00"
194,4070,240727,UNIVERSITYOFWYOMING,Laramie,WY,7,41.311943,-105.57204,3,18691.0,,4892.0,15632.0,,0.5548,0.568,0.25,0.4583,0.6154,0.5,0.75,0.5667,0.4583,0.5167,0.9566,1122.0,25.0,University of Wyoming (UW),State,"$44,500.00","$78,700.00","$41,500.00","$54,000.00","$105,000.00","$145,000.00"
